{  
   "zipCode":"90001",
   "city":"Los Angeles",
   "state":"CA",
   "featuredStores":[  
      {  
         "id":"00180000018To1WAAS",
         "name":"Boost Mobile Store by Sinaloa 2000",
         "phoneSalesInd":false,
         "reboostInd":false,
         "mWalletInd":false,
         "customerSupportInd":false,
         "preferedInd":false,
         "lat":33.961062,
         "lng":-118.25654,
         "addressLine":"8503 S. Central Ave",
         "city":"Los Angeles",
         "state":"CA",
         "zipCode":"90001",
         "phoneNumber":"(323) 583-8379",
         "distance":0.0
      },
      {  
         "id":"00180000010K2hyAAC",
         "name":"Boost Mobile Store by Sinaloa 2000",
         "phoneSalesInd":false,
         "reboostInd":false,
         "mWalletInd":false,
         "customerSupportInd":false,
         "preferedInd":false,
         "lat":33.974632,
         "lng":-118.25241,
         "addressLine":"1248 East Florence Ave",
         "city":"Los Angeles",
         "state":"CA",
         "zipCode":"90001",
         "phoneNumber":"(323) 582-2801",
         "distance":0.0
      },
      {  
         "id":"0018000001DdCwJAAV",
         "name":"Boost Mobile Store by 7th Street Cellular",
         "phoneSalesInd":false,
         "reboostInd":false,
         "mWalletInd":false,
         "customerSupportInd":false,
         "preferedInd":false,
         "lat":33.960832,
         "lng":-118.26493,
         "addressLine":"8524 Avalon Blvd",
         "city":"Los Angeles",
         "state":"CA",
         "zipCode":"90001",
         "phoneNumber":"(323) 920-4059",
         "distance":0.0
      },
      {  
         "id":"00180000012XnVBAA0",
         "name":"Boost Mobile Store by Sinaloa 2000",
         "phoneSalesInd":false,
         "reboostInd":false,
         "mWalletInd":false,
         "customerSupportInd":false,
         "preferedInd":false,
         "lat":33.960012,
         "lng":-118.24013,
         "addressLine":"1816 E. Firestone Blvd Suite A",
         "city":"Los Angeles",
         "state":"CA",
         "zipCode":"90001",
         "phoneNumber":"(323) 585-2247",
         "distance":0.0
      },
      {  
         "id":"0018000000v0MGrAAM",
         "name":"Boost Mobile Store by Jet Wireless",
         "phoneSalesInd":false,
         "reboostInd":false,
         "mWalletInd":false,
         "customerSupportInd":false,
         "preferedInd":false,
         "lat":33.961062,
         "lng":-118.25654,
         "addressLine":"1933 E. Florence Ave.",
         "city":"Los Angeles",
         "state":"CA",
         "zipCode":"90001",
         "phoneNumber":"(323) 585-2843",
         "distance":0.0
      }
   ],
   "stores":[  
      {  
         "id":"0018000000RhKXVAA3",
         "name":"Morales Sons Wireless",
         "phoneSalesInd":false,
         "reboostInd":false,
         "mWalletInd":false,
         "customerSupportInd":false,
         "preferedInd":false,
         "lat":33.98494,
         "lng":-118.24755,
         "addressLine":"6028 Compton Ave",
         "city":"Los Angeles",
         "state":"CA",
         "zipCode":"90001",
         "phoneNumber":"(323) 587-1381",
         "distance":0.0
      },
      {  
         "id":"0018000001GUu5lAAD",
         "name":"Eckoe \u0026 Luis payment center",
         "phoneSalesInd":false,
         "reboostInd":false,
         "mWalletInd":false,
         "customerSupportInd":false,
         "preferedInd":false,
         "lat":33.972418,
         "lng":-118.2475,
         "addressLine":"7508 Compton ave",
         "city":"Los Angeles",
         "state":"CA",
         "zipCode":"90001",
         "phoneNumber":"(323) 479-5740",
         "distance":0.0
      },
      {  
         "id":"0018000001LUsYSAA1",
         "name":"Servicio Express Financiero #2",
         "phoneSalesInd":false,
         "reboostInd":false,
         "mWalletInd":false,
         "customerSupportInd":false,
         "preferedInd":false,
         "lat":33.984077,
         "lng":-118.24428,
         "addressLine":"7317 Compton Ave.",
         "city":"Los Angeles",
         "state":"CA",
         "zipCode":"90001",
         "phoneNumber":"(323) 584-8412",
         "distance":0.0
      },
      {  
         "id":"0013000000FD261AAD",
         "name":"Jessie\u0027s Cellular",
         "phoneSalesInd":false,
         "reboostInd":false,
         "mWalletInd":false,
         "customerSupportInd":false,
         "preferedInd":false,
         "lat":33.974077,
         "lng":-118.24428,
         "addressLine":"7230 Maie Ave",
         "city":"Los Angeles",
         "state":"CA",
         "zipCode":"90001",
         "phoneNumber":"(323) 589-4568",
         "distance":0.0
      },
      {  
         "id":"0018000001EOLKKAA5",
         "name":"Cybercafe Florence",
         "phoneSalesInd":false,
         "reboostInd":false,
         "mWalletInd":false,
         "customerSupportInd":false,
         "preferedInd":false,
         "lat":33.969927,
         "lng":-118.24749,
         "addressLine":"7702 Compton Ave",
         "city":"Los Angeles",
         "state":"CA",
         "zipCode":"90001",
         "phoneNumber":"(323) 426-1576",
         "distance":0.0
      },
      {  
         "id":"00180000012XnVBAA0",
         "name":"Boost Mobile Store by Sinaloa 2000",
         "phoneSalesInd":false,
         "reboostInd":false,
         "mWalletInd":false,
         "customerSupportInd":false,
         "preferedInd":false,
         "lat":33.960012,
         "lng":-118.24013,
         "addressLine":"1816 E. Firestone Blvd Suite A",
         "city":"Los Angeles",
         "state":"CA",
         "zipCode":"90001",
         "phoneNumber":"(323) 585-2247",
         "distance":0.0
      },
      {  
         "id":"0018000001Bor5eAAB",
         "name":"Prepaid Zone",
         "phoneSalesInd":false,
         "reboostInd":false,
         "mWalletInd":false,
         "customerSupportInd":false,
         "preferedInd":false,
         "lat":33.974562,
         "lng":-118.24351,
         "addressLine":"1662 E. Florence Ave",
         "city":"Los Angeles",
         "state":"CA",
         "zipCode":"90001",
         "phoneNumber":"(323) 360-2273",
         "distance":0.0
      },
      {  
         "id":"0018000001DdCwJAAV",
         "name":"Boost Mobile Store by 7th Street Cellular",
         "phoneSalesInd":false,
         "reboostInd":false,
         "mWalletInd":false,
         "customerSupportInd":false,
         "preferedInd":false,
         "lat":33.960832,
         "lng":-118.26493,
         "addressLine":"8524 Avalon Blvd",
         "city":"Los Angeles",
         "state":"CA",
         "zipCode":"90001",
         "phoneNumber":"(323) 920-4059",
         "distance":0.0
      },
      {  
         "id":"0018000001A8TmmAAF",
         "name":"National Communications",
         "phoneSalesInd":false,
         "reboostInd":false,
         "mWalletInd":false,
         "customerSupportInd":false,
         "preferedInd":false,
         "lat":33.987034,
         "lng":-118.26501,
         "addressLine":"608 East 59th St",
         "city":"Los Angeles",
         "state":"CA",
         "zipCode":"90001",
         "phoneNumber":"(323) 232-6722",
         "distance":0.0
      },
      {  
         "id":"0018000001Brbx8AAB",
         "name":"Digital Unlimited",
         "phoneSalesInd":false,
         "reboostInd":false,
         "mWalletInd":false,
         "customerSupportInd":false,
         "preferedInd":false,
         "lat":33.974592,
         "lng":-118.23536,
         "addressLine":"2040 E. Florence Ave.",
         "city":"Los Angeles",
         "state":"CA",
         "zipCode":"90001",
         "phoneNumber":"(323) 585-5286",
         "distance":0.0
      },
      {  
         "id":"0018000001JduyOAAR",
         "name":"99 Cent Market Matamoros",
         "phoneSalesInd":false,
         "reboostInd":false,
         "mWalletInd":false,
         "customerSupportInd":false,
         "preferedInd":false,
         "lat":33.960012,
         "lng":-118.24013,
         "addressLine":"5859 Compton Ave",
         "city":"Los Angeles",
         "state":"CA",
         "zipCode":"90001",
         "phoneNumber":"(323) 589-8287",
         "distance":0.0
      },
      {  
         "id":"0018000001GWX7pAAH",
         "name":"Mega Wireless",
         "phoneSalesInd":false,
         "reboostInd":false,
         "mWalletInd":false,
         "customerSupportInd":false,
         "preferedInd":false,
         "lat":33.978976,
         "lng":-118.25625,
         "addressLine":"6728 S. Central Avenue",
         "city":"Los Angeles",
         "state":"CA",
         "zipCode":"90001",
         "phoneNumber":"(213) 479-2742",
         "distance":0.0
      },
      {  
         "id":"0018000001B2YaVAAV",
         "name":"GL Wireless and Accesories",
         "phoneSalesInd":false,
         "reboostInd":false,
         "mWalletInd":false,
         "customerSupportInd":false,
         "preferedInd":false,
         "lat":33.96001,
         "lng":-118.23582,
         "addressLine":"2006 Firestone Blvd.",
         "city":"Los Angeles",
         "state":"CA",
         "zipCode":"90001",
         "phoneNumber":"(323) 582-2323",
         "distance":0.0
      },
      {  
         "id":"0018000001EQCrXAAX",
         "name":"Cuddy Inc",
         "phoneSalesInd":false,
         "reboostInd":false,
         "mWalletInd":false,
         "customerSupportInd":false,
         "preferedInd":false,
         "lat":33.974907,
         "lng":-118.25525,
         "addressLine":"1133 S Florence Ave",
         "city":"Los Angeles",
         "state":"CA",
         "zipCode":"90001",
         "phoneNumber":"(323) 907-3910",
         "distance":0.0
      },
      {  
         "id":"00180000018To1WAAS",
         "name":"Boost Mobile Store by Sinaloa 2000",
         "phoneSalesInd":false,
         "reboostInd":false,
         "mWalletInd":false,
         "customerSupportInd":false,
         "preferedInd":false,
         "lat":33.961062,
         "lng":-118.25654,
         "addressLine":"8503 S. Central Ave",
         "city":"Los Angeles",
         "state":"CA",
         "zipCode":"90001",
         "phoneNumber":"(323) 583-8379",
         "distance":0.0
      },
      {  
         "id":"0018000001DbabXAAR",
         "name":"JJS Mobile",
         "phoneSalesInd":false,
         "reboostInd":false,
         "mWalletInd":false,
         "customerSupportInd":false,
         "preferedInd":false,
         "lat":33.974886,
         "lng":-118.24444,
         "addressLine":"1627 E Florence Avenue",
         "city":"Los Angeles",
         "state":"CA",
         "zipCode":"90001",
         "phoneNumber":"(213) 245-4834",
         "distance":0.0
      },
      {  
         "id":"0018000001EQNOPAA5",
         "name":"SG Wireless",
         "phoneSalesInd":false,
         "reboostInd":false,
         "mWalletInd":false,
         "customerSupportInd":false,
         "preferedInd":false,
         "lat":33.982147,
         "lng":-118.23823,
         "addressLine":"1927 E Gage Ave",
         "city":"Huntington Park",
         "state":"CA",
         "zipCode":"90001",
         "phoneNumber":"(323) 247-8628",
         "distance":0.0
      },
      {  
         "id":"00180000010K2hyAAC",
         "name":"Boost Mobile Store by Sinaloa 2000",
         "phoneSalesInd":false,
         "reboostInd":false,
         "mWalletInd":false,
         "customerSupportInd":false,
         "preferedInd":false,
         "lat":33.974632,
         "lng":-118.25241,
         "addressLine":"1248 East Florence Ave",
         "city":"Los Angeles",
         "state":"CA",
         "zipCode":"90001",
         "phoneNumber":"(323) 582-2801",
         "distance":0.0
      },
      {  
         "id":"0018000001Jbt2mAAB",
         "name":"Florence Communications",
         "phoneSalesInd":false,
         "reboostInd":false,
         "mWalletInd":false,
         "customerSupportInd":false,
         "preferedInd":false,
         "lat":33.960012,
         "lng":-118.24013,
         "addressLine":"1448 E. Florence Ave Suite B",
         "city":"Los Angeles",
         "state":"CA",
         "zipCode":"90001",
         "phoneNumber":"(323) 775-8009",
         "distance":0.0
      },
      {  
         "id":"0013000000AbwgoAAB",
         "name":"Sinaloa 2000",
         "phoneSalesInd":false,
         "reboostInd":false,
         "mWalletInd":false,
         "customerSupportInd":false,
         "preferedInd":false,
         "lat":33.9663,
         "lng":-118.25623,
         "addressLine":"8026 S Central Ave",
         "city":"Los Angeles",
         "state":"CA",
         "zipCode":"90001",
         "phoneNumber":"(323) 583-8379",
         "distance":0.0
      },
      {  
         "id":"0018000000v0MGrAAM",
         "name":"Boost Mobile Store by Jet Wireless",
         "phoneSalesInd":false,
         "reboostInd":false,
         "mWalletInd":false,
         "customerSupportInd":false,
         "preferedInd":false,
         "lat":33.961062,
         "lng":-118.25654,
         "addressLine":"1933 E. Florence Ave.",
         "city":"Los Angeles",
         "state":"CA",
         "zipCode":"90001",
         "phoneNumber":"(323) 585-2843",
         "distance":0.0
      },
      {  
         "id":"0018000001JeicDAAR",
         "name":"407 Wireless",
         "phoneSalesInd":false,
         "reboostInd":false,
         "mWalletInd":false,
         "customerSupportInd":false,
         "preferedInd":false,
         "lat":33.960012,
         "lng":-118.24013,
         "addressLine":"407 E. Florence Ave",
         "city":"Los Angeles",
         "state":"CA",
         "zipCode":"90003",
         "phoneNumber":"(323) 752-0785",
         "distance":1.0
      },
      {  
         "id":"0018000001GXlrIAAT",
         "name":"Accessories Hilda\u0027s",
         "phoneSalesInd":false,
         "reboostInd":false,
         "mWalletInd":false,
         "customerSupportInd":false,
         "preferedInd":false,
         "lat":33.967629,
         "lng":-118.27811,
         "addressLine":"7924 S Broadway",
         "city":"Los Angeles",
         "state":"CA",
         "zipCode":"90003",
         "phoneNumber":"(213) 926-2699",
         "distance":1.0
      },
      {  
         "id":"0013000000L0euxAAB",
         "name":"Exclusive Mobile",
         "phoneSalesInd":false,
         "reboostInd":false,
         "mWalletInd":false,
         "customerSupportInd":false,
         "preferedInd":false,
         "lat":33.956765,
         "lng":-118.27836,
         "addressLine":"8851 S. Broadway Ste A",
         "city":"Los Angeles",
         "state":"CA",
         "zipCode":"90003",
         "phoneNumber":"(323) 971-1002",
         "distance":1.0
      },
      {  
         "id":"0018000001B28txAAB",
         "name":"Malagon Tech",
         "phoneSalesInd":false,
         "reboostInd":false,
         "mWalletInd":false,
         "customerSupportInd":false,
         "preferedInd":false,
         "lat":33.964533,
         "lng":-118.26528,
         "addressLine":"8215 S. Avalon Blvd",
         "city":"Los Angeles",
         "state":"CA",
         "zipCode":"90003",
         "phoneNumber":"(323) 508-6498",
         "distance":1.0
      },
      {  
         "id":"0018000000tXBCsAAO",
         "name":"Boost Mobile Store by Sinaloa 2000",
         "phoneSalesInd":false,
         "reboostInd":false,
         "mWalletInd":false,
         "customerSupportInd":false,
         "preferedInd":false,
         "lat":33.974867,
         "lng":-118.26534,
         "addressLine":"539 E. Florence Ave A",
         "city":"Los Angeles",
         "state":"CA",
         "zipCode":"90003",
         "phoneNumber":"(323) 750-1500",
         "distance":1.0
      },
      {  
         "id":"00180000011NchlAAC",
         "name":"Boost Mobile Store by Cellular Ave",
         "phoneSalesInd":false,
         "reboostInd":false,
         "mWalletInd":false,
         "customerSupportInd":false,
         "preferedInd":false,
         "lat":33.945717,
         "lng":-118.27444,
         "addressLine":"105 W Century Blvd Suite 103",
         "city":"Los Angeles",
         "state":"CA",
         "zipCode":"90003",
         "phoneNumber":"(323) 757-2075",
         "distance":1.0
      },
      {  
         "id":"0018000001GV6H1AAL",
         "name":"Talk \u0026 Text",
         "phoneSalesInd":false,
         "reboostInd":false,
         "mWalletInd":false,
         "customerSupportInd":false,
         "preferedInd":false,
         "lat":33.959613,
         "lng":-118.28284,
         "addressLine":"8631 S Figueroa St",
         "city":"Los Angeles",
         "state":"CA",
         "zipCode":"90003",
         "phoneNumber":"(310) 930-1974",
         "distance":1.0
      },
      {  
         "id":"0013000000Abwf0AAB",
         "name":"Hood Wireless",
         "phoneSalesInd":false,
         "reboostInd":false,
         "mWalletInd":false,
         "customerSupportInd":false,
         "preferedInd":false,
         "lat":33.959952,
         "lng":-118.26364,
         "addressLine":"620 E. Manchester ave.",
         "city":"Los Angeles",
         "state":"CA",
         "zipCode":"90003",
         "phoneNumber":"(213) 785-8653",
         "distance":1.0
      },
      {  
         "id":"0018000001Jbv30AAB",
         "name":"TCG dba The Cellular Group",
         "phoneSalesInd":false,
         "reboostInd":false,
         "mWalletInd":false,
         "customerSupportInd":false,
         "preferedInd":false,
         "lat":33.960012,
         "lng":-118.24013,
         "addressLine":"6125 S. Broadway Ave",
         "city":"Los Angeles",
         "state":"CA",
         "zipCode":"90003",
         "phoneNumber":"(323) 679-8834",
         "distance":1.0
      },
      {  
         "id":"0018000001EOMzCAAX",
         "name":"Veracruz Wireless",
         "phoneSalesInd":false,
         "reboostInd":false,
         "mWalletInd":false,
         "customerSupportInd":false,
         "preferedInd":false,
         "lat":33.97455,
         "lng":-118.27534,
         "addressLine":"150 W. Florence Avenue",
         "city":"Los Angeles",
         "state":"CA",
         "zipCode":"90003",
         "phoneNumber":"(323) 822-8575",
         "distance":1.0
      },
      {  
         "id":"0018000001CloCfAAJ",
         "name":"AV Wireless",
         "phoneSalesInd":false,
         "reboostInd":false,
         "mWalletInd":false,
         "customerSupportInd":false,
         "preferedInd":false,
         "lat":33.974542,
         "lng":-118.27776,
         "addressLine":"250 W. Florence Ave",
         "city":"Los Angeles",
         "state":"CA",
         "zipCode":"90003",
         "phoneNumber":"(323) 541-0092",
         "distance":1.0
      },
      {  
         "id":"0018000000ZjJdIAAV",
         "name":"Boost Mobile Store by Mega Mobile",
         "phoneSalesInd":false,
         "reboostInd":false,
         "mWalletInd":false,
         "customerSupportInd":false,
         "preferedInd":false,
         "lat":33.960276,
         "lng":-118.27578,
         "addressLine":"175 W.Manchester Ave",
         "city":"Los Angeles",
         "state":"CA",
         "zipCode":"90003",
         "phoneNumber":"(323) 241-3887",
         "distance":1.0
      },
      {  
         "id":"0018000001ABefPAAT",
         "name":"EZ Wireless",
         "phoneSalesInd":false,
         "reboostInd":false,
         "mWalletInd":false,
         "customerSupportInd":false,
         "preferedInd":false,
         "lat":33.98662,
         "lng":-118.27408,
         "addressLine":"5919 South Main Street",
         "city":"Los Angeles",
         "state":"CA",
         "zipCode":"90003",
         "phoneNumber":"(323) 232-0134",
         "distance":1.0
      },
      {  
         "id":"0018000001B2LrRAAV",
         "name":"Fig\u0026Flo Wireless",
         "phoneSalesInd":false,
         "reboostInd":false,
         "mWalletInd":false,
         "customerSupportInd":false,
         "preferedInd":false,
         "lat":33.974797,
         "lng":-118.28236,
         "addressLine":"455 W. Florence Ave",
         "city":"Los Angeles",
         "state":"CA",
         "zipCode":"90003",
         "phoneNumber":"(323) 752-0828",
         "distance":1.0
      },
      {  
         "id":"0018000001HavViAAJ",
         "name":"Alfa Y Omega Cell Phone Store",
         "phoneSalesInd":false,
         "reboostInd":false,
         "mWalletInd":false,
         "customerSupportInd":false,
         "preferedInd":false,
         "lat":33.979671,
         "lng":-118.27812,
         "addressLine":"6616 S. Broadway",
         "city":"Los Angeles",
         "state":"CA",
         "zipCode":"90003",
         "phoneNumber":"(322) 823-1386",
         "distance":1.0
      },
      {  
         "id":"00180000012XoG5AAK",
         "name":"Boost Mobile Store by Broadway Wireless",
         "phoneSalesInd":false,
         "reboostInd":false,
         "mWalletInd":false,
         "customerSupportInd":false,
         "preferedInd":false,
         "lat":33.974456,
         "lng":-118.27812,
         "addressLine":"7222 Broadway",
         "city":"Los Angeles",
         "state":"CA",
         "zipCode":"90003",
         "phoneNumber":"(323) 778-2520",
         "distance":1.0
      },
      {  
         "id":"00180000016aflEAAQ",
         "name":"Boost Mobile Store by National Communications",
         "phoneSalesInd":false,
         "reboostInd":false,
         "mWalletInd":false,
         "customerSupportInd":false,
         "preferedInd":false,
         "lat":33.986399,
         "lng":-118.27374,
         "addressLine":"5930 South Main Street 101",
         "city":"Los Angeles",
         "state":"CA",
         "zipCode":"90003",
         "phoneNumber":"(323) 234-1512",
         "distance":1.0
      },
      {  
         "id":"0018000001IiaQCAAZ",
         "name":"Sprint at RadioShack Store",
         "phoneSalesInd":false,
         "reboostInd":false,
         "mWalletInd":false,
         "customerSupportInd":false,
         "preferedInd":false,
         "lat":33.943615,
         "lng":-118.2459,
         "addressLine":"1601 E 103Rd St",
         "city":"Los Angeles",
         "state":"CA",
         "zipCode":"90002",
         "phoneNumber":"(323) 743-8500",
         "distance":1.0
      },
      {  
         "id":"00180000018TbBAAA0",
         "name":"RadioShack",
         "phoneSalesInd":false,
         "reboostInd":false,
         "mWalletInd":false,
         "customerSupportInd":false,
         "preferedInd":false,
         "lat":33.943356,
         "lng":-118.24579,
         "addressLine":"1601 E 103Rd St Ste 4",
         "city":"Los Angeles",
         "state":"CA",
         "zipCode":"90002",
         "phoneNumber":"(323) 566-0683",
         "distance":1.0
      },
      {  
         "id":"0018000001FSIEPAA5",
         "name":"Alameda Wireless",
         "phoneSalesInd":false,
         "reboostInd":false,
         "mWalletInd":false,
         "customerSupportInd":false,
         "preferedInd":false,
         "lat":33.958813,
         "lng":-118.23144,
         "addressLine":"8655 S. Alameda Ave",
         "city":"Los Angeles",
         "state":"CA",
         "zipCode":"90002",
         "phoneNumber":"(323) 637-0300",
         "distance":1.0
      },
      {  
         "id":"0013000000CTGm8AAH",
         "name":"Boost Mobile Store by Dwireless Club",
         "phoneSalesInd":false,
         "reboostInd":false,
         "mWalletInd":false,
         "customerSupportInd":false,
         "preferedInd":false,
         "lat":33.978124,
         "lng":-118.22495,
         "addressLine":"6726 Pacific Blvd",
         "city":"Huntington Park",
         "state":"CA",
         "zipCode":"90255",
         "phoneNumber":"(323) 583-0533",
         "distance":1.0
      },
      {  
         "id":"0018000001Hc5RzAAJ",
         "name":"One Stop Wireless",
         "phoneSalesInd":false,
         "reboostInd":false,
         "mWalletInd":false,
         "customerSupportInd":false,
         "preferedInd":false,
         "lat":33.973818,
         "lng":-118.22259,
         "addressLine":"2690 E Florence Ave.",
         "city":"Huntington Park",
         "state":"CA",
         "zipCode":"90255",
         "phoneNumber":"(323) 588-4238",
         "distance":1.0
      },
      {  
         "id":"0018000001GUtBUAA1",
         "name":"Los Plebes Wireless",
         "phoneSalesInd":false,
         "reboostInd":false,
         "mWalletInd":false,
         "customerSupportInd":false,
         "preferedInd":false,
         "lat":33.969947,
         "lng":-118.21007,
         "addressLine":"7519 State St",
         "city":"Huntington Park",
         "state":"CA",
         "zipCode":"90255",
         "phoneNumber":"(323) 835-6399",
         "distance":1.0
      },
      {  
         "id":"0018000001DbBdWAAV",
         "name":"Ramirez Wireless",
         "phoneSalesInd":false,
         "reboostInd":false,
         "mWalletInd":false,
         "customerSupportInd":false,
         "preferedInd":false,
         "lat":33.986151,
         "lng":-118.22966,
         "addressLine":"2423 Randolph Street",
         "city":"Huntington Park",
         "state":"CA",
         "zipCode":"90255",
         "phoneNumber":"(323) 581-8780",
         "distance":1.0
      },
      {  
         "id":"0018000001LUsbqAAD",
         "name":"Innovative Wireless",
         "phoneSalesInd":false,
         "reboostInd":false,
         "mWalletInd":false,
         "customerSupportInd":false,
         "preferedInd":false,
         "lat":33.960012,
         "lng":-118.24013,
         "addressLine":"2513 1/2 Gage Ave",
         "city":"Huntington Park",
         "state":"CA",
         "zipCode":"90255",
         "phoneNumber":"(213) 305-6092",
         "distance":1.0
      },
      {  
         "id":"0018000001B3e5uAAB",
         "name":"Boost Mobile Store by Sinaloa 2000",
         "phoneSalesInd":false,
         "reboostInd":false,
         "mWalletInd":false,
         "customerSupportInd":false,
         "preferedInd":false,
         "lat":33.974706,
         "lng":-118.22868,
         "addressLine":"2457 E Florence Ave",
         "city":"Huntington Park",
         "state":"CA",
         "zipCode":"90255",
         "phoneNumber":"(323) 584-6697",
         "distance":1.0
      },
      {  
         "id":"0018000001Hc2KxAAJ",
         "name":"D\u0026S Cell Accessories",
         "phoneSalesInd":false,
         "reboostInd":false,
         "mWalletInd":false,
         "customerSupportInd":false,
         "preferedInd":false,
         "lat":33.974111,
         "lng":-118.22274,
         "addressLine":"2681 E. Florence Avenue",
         "city":"Huntington Park",
         "state":"CA",
         "zipCode":"90255",
         "phoneNumber":"(323) 354-6041",
         "distance":1.0
      },
      {  
         "id":"",
         "name":"7-ELEVEN",
         "phoneSalesInd":false,
         "reboostInd":false,
         "mWalletInd":false,
         "customerSupportInd":false,
         "preferedInd":false,
         "lat":33.960012,
         "lng":-118.24013,
         "addressLine":"2582 E. SLAUSON AVENUE",
         "city":"Huntington Park",
         "state":"CA",
         "zipCode":"90255",
         "phoneNumber":"(323) 583-7642",
         "distance":1.0
      },
      {  
         "id":"",
         "name":"7-ELEVEN",
         "phoneSalesInd":false,
         "reboostInd":false,
         "mWalletInd":false,
         "customerSupportInd":false,
         "preferedInd":false,
         "lat":33.960012,
         "lng":-118.24013,
         "addressLine":"6224 PACIFIC BLVD",
         "city":"Huntington Park",
         "state":"CA",
         "zipCode":"90255",
         "phoneNumber":"(323) 581-2690",
         "distance":1.0
      }
   ],
   "resultsFoundInd":false,
   "resultsFoundNum":1211
}
